{
"type": "FeatureCollection",
"name": "sql_statement",
"crs": { "type": "name", "properties": { "name": "urn:ogc:def:crs:OGC:1.3:CRS84" } },
"features": [
{ "type": "Feature", "properties": { "name": "Keynsham Leisure Centre", "address": "Temple Street, Keynsham, Bristol", "postcode": "BS31 1HE", "mi_style": "Symbol (\"Football Ground.gif\",0,12,0)", "mi_prinx": 1, "date_creat": null, "created_by": null, "date_edite": "2013\/06\/27", "edited_by": "MAPDATA" }, "geometry": { "type": "MultiPoint", "coordinates": [ [ -2.496931520733586, 51.412614176864658 ] ] } },
{ "type": "Feature", "properties": { "name": "Bath Sports & Leisure Centre", "address": "North Parade Road, Bath", "postcode": "BA2 4ET", "mi_style": "Symbol (\"Football Ground.gif\",0,12,0)", "mi_prinx": 2, "date_creat": null, "created_by": null, "date_edite": "2013\/06\/27", "edited_by": "MAPDATA" }, "geometry": { "type": "MultiPoint", "coordinates": [ [ -2.353970965169523, 51.381619367275789 ] ] } },
{ "type": "Feature", "properties": { "name": "Keynsham Leisure Centre", "address": "Temple Street, Keynsham, Bristol", "postcode": "BS31 1HE", "mi_style": "Symbol (\"Football Ground.gif\",0,12,0)", "mi_prinx": 1, "date_creat": null, "created_by": null, "date_edite": "2013\/06\/27", "edited_by": "MAPDATA" }, "geometry": { "type": "MultiPoint", "coordinates": [ [ -2.496931520733586, 51.412614176864658 ] ] } },
{ "type": "Feature", "properties": { "name": "Bath Sports & Leisure Centre", "address": "North Parade Road, Bath", "postcode": "BA2 4ET", "mi_style": "Symbol (\"Football Ground.gif\",0,12,0)", "mi_prinx": 2, "date_creat": null, "created_by": null, "date_edite": "2013\/06\/27", "edited_by": "MAPDATA" }, "geometry": { "type": "MultiPoint", "coordinates": [ [ -2.353970965169523, 51.381619367275789 ] ] } },
{ "type": "Feature", "properties": { "name": "Keynsham Leisure Centre", "address": "Temple Street, Keynsham, Bristol", "postcode": "BS31 1HE", "mi_style": "Symbol (\"Football Ground.gif\",0,12,0)", "mi_prinx": 1, "date_creat": null, "created_by": null, "date_edite": "2013\/06\/27", "edited_by": "MAPDATA" }, "geometry": { "type": "MultiPoint", "coordinates": [ [ -2.496931520733586, 51.412614176864658 ] ] } },
{ "type": "Feature", "properties": { "name": "Bath Sports & Leisure Centre", "address": "North Parade Road, Bath", "postcode": "BA2 4ET", "mi_style": "Symbol (\"Football Ground.gif\",0,12,0)", "mi_prinx": 2, "date_creat": null, "created_by": null, "date_edite": "2013\/06\/27", "edited_by": "MAPDATA" }, "geometry": { "type": "MultiPoint", "coordinates": [ [ -2.353970965169523, 51.381619367275789 ] ] } }
]
}
